$GNGGA,211401.000,4911.280788,N,12307.008432,W,1,33,0.54,-0.839,M,-16.830,M,,*62
$GNRMC,211401.000,A,4911.280788,N,12307.008432,W,0.019,013.20,080325,,,A,V*21
$GNGLL,4911.280788,N,12307.008432,W,211401.000,A,A*58
$GNVTG,013.20,T,,M,0.019,N,0.036,K,A*2E
$GNGSA,A,3,06,11,12,17,19,20,22,24,25,32,,,0.83,0.54,0.63,1*07
$GNGSA,A,3,65,72,73,79,80,81,82,88,,,,,0.83,0.54,0.63,2*0A
$GNGSA,A,3,02,15,27,29,30,34,36,,,,,,0.83,0.54,0.63,3*05
$GNGSA,A,3,16,27,28,30,36,37,39,42,,,,,0.83,0.54,0.63,4*0D
$GNGSA,A,3,,,,,,,,,,,,,0.83,0.54,0.63,5*0A
$GPGSV,3,1,12,06,59,076,30,11,61,152,25,12,73,295,37,17,05,072,24,1*66
$GPGSV,3,2,12,19,31,068,41,20,13,146,29,22,04,120,45,24,29,211,28,1*6C
$GPGSV,3,3,12,25,34,301,37,29,,,17,32,04,302,13,44,33,171,30,1*5E
$GPGSV,2,1,06,03,03,015,17,06,59,076,35,11,61,152,30,24,29,211,30,8*69
$GPGSV,2,2,06,25,34,301,26,32,04,302,27,8*6C
$GLGSV,2,1,08,65,06,045,29,72,09,353,39,73,17,321,25,79,45,150,34,1*76
$GLGSV,2,2,08,80,73,307,26,81,58,039,37,82,68,221,17,88,05,041,20,1*77
$GAGSV,2,1,07,02,40,120,39,15,18,196,23,27,28,299,33,29,08,297,27,7*7D
$GAGSV,2,2,07,30,82,295,27,34,60,152,31,36,44,056,32,7*44
$GAGSV,2,1,07,02,40,120,34,15,18,196,30,27,28,299,40,29,08,297,28,1*7F
$GAGSV,2,2,07,30,82,295,20,34,60,152,24,36,44,056,51,1*44
$GBGSV,3,1,09,14,,,18,16,07,333,25,27,70,219,30,28,59,062,30,1*4F
$GBGSV,3,2,09,30,19,233,28,36,22,312,14,37,38,165,31,39,13,330,26,1*7E
$GBGSV,3,3,09,42,05,037,22,1*48
$GBGSV,2,1,07,27,70,219,37,28,59,062,45,30,19,233,13,36,22,312,29,5*7C
$GBGSV,2,2,07,37,38,165,30,39,13,330,25,42,05,037,24,5*45
$GQGSV,1,1,00,1*65
$GQGSV,1,1,00,8*6C
$GNGGA,211402.000,4911.280780,N,12307.008432,W,1,33,0.54,-0.842,M,-16.830,M,,*65
$GNRMC,211402.000,A,4911.280780,N,12307.008432,W,0.014,013.20,080325,,,A,V*27
$GNGLL,4911.280780,N,12307.008432,W,211402.000,A,A*53
$GNVTG,013.20,T,,M,0.014,N,0.026,K,A*22
$GNGSA,A,3,06,11,12,17,19,20,22,24,25,32,,,0.85,0.54,0.65,1*07
$GNGSA,A,3,65,72,73,79,80,81,82,88,,,,,0.85,0.54,0.65,2*0A
$GNGSA,A,3,02,15,27,29,30,34,36,,,,,,0.85,0.54,0.65,3*05
$GNGSA,A,3,16,27,28,30,36,37,39,42,,,,,0.85,0.54,0.65,4*0D
$GNGSA,A,3,,,,,,,,,,,,,0.85,0.54,0.65,5*0A
$GPGSV,3,1,12,06,59,076,30,11,61,152,25,12,73,295,36,17,05,072,25,1*66
$GPGSV,3,2,12,19,31,068,41,20,13,146,30,22,04,120,45,24,29,211,28,1*64
$GPGSV,3,3,12,25,34,301,37,29,,,17,32,04,302,11,44,33,171,30,1*5C
$GPGSV,2,1,06,03,03,015,17,06,59,076,35,11,61,152,29,24,29,211,30,8*61
$GPGSV,2,2,06,25,34,301,27,32,04,302,27,8*6D
$GLGSV,2,1,08,65,06,045,28,72,09,353,39,73,17,321,25,79,45,150,33,1*70
$GLGSV,2,2,08,80,73,307,25,81,58,039,37,82,68,221,18,88,05,041,20,1*7B
$GAGSV,2,1,07,02,40,120,39,15,18,196,22,27,28,299,34,29,08,297,26,7*7A
$GAGSV,2,2,07,30,82,295,28,34,60,152,31,36,44,055,32,7*48
$GAGSV,2,1,07,02,40,120,33,15,18,196,28,27,28,299,39,29,08,297,27,1*70
$GAGSV,2,2,07,30,82,295,20,34,60,152,24,36,44,055,51,1*47
$GBGSV,3,1,09,14,,,18,16,07,333,24,27,70,219,29,28,59,062,30,1*46
$GBGSV,3,2,09,30,19,233,26,36,22,312,14,37,38,165,31,39,13,330,26,1*70
$GBGSV,3,3,09,42,05,037,21,1*4B
$GBGSV,2,1,07,27,70,219,36,28,59,062,44,30,19,233,12,36,22,312,29,5*7D
$GBGSV,2,2,07,37,38,165,29,39,13,330,25,42,05,037,22,5*4B
$GQGSV,1,1,00,1*65
$GQGSV,1,1,00,8*6C
$GNGGA,211403.000,4911.280768,N,12307.008436,W,1,33,0.54,-0.850,M,-16.829,M,,*6D
$GNRMC,211403.000,A,4911.280768,N,12307.008436,W,0.009,013.20,080325,,,A,V*28
$GNGLL,4911.280768,N,12307.008436,W,211403.000,A,A*50
$GNVTG,013.20,T,,M,0.009,N,0.017,K,A*2C
$GNGSA,A,3,06,11,12,17,19,20,22,24,25,32,,,0.83,0.54,0.63,1*07
$GNGSA,A,3,65,72,73,79,80,81,82,88,,,,,0.83,0.54,0.63,2*0A
$GNGSA,A,3,02,15,27,29,30,34,36,,,,,,0.83,0.54,0.63,3*05
$GNGSA,A,3,16,27,28,30,36,37,39,42,,,,,0.83,0.54,0.63,4*0D
$GNGSA,A,3,,,,,,,,,,,,,0.83,0.54,0.63,5*0A
$GPGSV,3,1,12,06,59,076,30,11,61,152,25,12,73,295,36,17,05,072,24,1*67
$GPGSV,3,2,12,19,31,068,42,20,13,146,29,22,04,120,45,24,29,211,28,1*6F
$GPGSV,3,3,12,25,34,301,37,29,,,18,32,04,302,12,44,33,171,30,1*50
$GPGSV,2,1,06,03,03,015,17,06,59,076,35,11,61,152,30,24,29,211,30,8*69
$GPGSV,2,2,06,25,34,301,25,32,04,302,26,8*6E
$GLGSV,2,1,08,65,06,045,30,72,09,353,38,73,17,321,25,79,45,150,33,1*78
$GLGSV,2,2,08,80,73,307,25,81,58,039,36,82,68,221,19,88,05,041,21,1*7A
$GAGSV,2,1,07,02,40,120,39,15,18,196,21,27,28,299,33,29,08,297,26,7*7E
$GAGSV,2,2,07,30,82,295,28,34,60,152,31,36,44,055,31,7*4B
$GAGSV,2,1,07,02,40,120,33,15,18,196,28,27,28,299,39,29,08,297,27,1*70
$GAGSV,2,2,07,30,82,295,20,34,60,152,23,36,44,055,50,1*41
$GBGSV,3,1,09,14,,,17,16,07,333,25,27,70,219,30,28,59,062,30,1*40
$GBGSV,3,2,09,30,19,233,27,36,22,312,13,37,38,165,32,39,13,330,26,1*75
$GBGSV,3,3,09,42,05,037,23,1*49
$GBGSV,2,1,07,27,70,219,36,28,59,062,44,30,19,233,13,36,22,312,28,5*7D
$GBGSV,2,2,07,37,38,165,29,39,13,330,25,42,05,037,23,5*4A
$GQGSV,1,1,00,1*65
$GQGSV,1,1,00,8*6C
$GNGGA,211404.000,4911.280753,N,12307.008437,W,1,33,0.54,-0.859,M,-16.829,M,,*6A
$GNRMC,211404.000,A,4911.280753,N,12307.008437,W,0.008,013.20,080325,,,A,V*27
$GNGLL,4911.280753,N,12307.008437,W,211404.000,A,A*5E
$GNVTG,013.20,T,,M,0.008,N,0.016,K,A*2C
$GNGSA,A,3,06,11,12,17,19,20,22,24,25,32,,,0.84,0.54,0.63,1*00
$GNGSA,A,3,65,72,73,79,80,81,82,88,,,,,0.84,0.54,0.63,2*0D
$GNGSA,A,3,02,15,27,29,30,34,36,,,,,,0.84,0.54,0.63,3*02
$GNGSA,A,3,16,27,28,30,36,37,39,42,,,,,0.84,0.54,0.63,4*0A
$GNGSA,A,3,,,,,,,,,,,,,0.84,0.54,0.63,5*0D
$GPGSV,3,1,12,06,59,076,29,11,61,151,25,12,73,295,36,17,05,072,24,1*6C
$GPGSV,3,2,12,19,31,068,42,20,13,146,28,22,04,120,45,24,29,211,27,1*61
$GPGSV,3,3,12,25,34,301,37,29,,,20,32,04,302,12,44,33,171,30,1*5B
$GPGSV,2,1,06,03,03,015,17,06,59,076,35,11,61,151,30,24,29,211,31,8*6B
$GPGSV,2,2,06,25,34,301,26,32,04,302,27,8*6C
$GLGSV,2,1,08,65,06,045,29,72,09,353,39,73,17,321,25,79,45,150,34,1*76
$GLGSV,2,2,08,80,73,307,25,81,58,039,37,82,68,221,17,88,05,041,20,1*74
$GAGSV,2,1,07,02,40,120,39,15,18,196,20,27,28,299,33,29,08,297,28,7*71
$GAGSV,2,2,07,30,82,295,26,34,60,152,31,36,44,055,31,7*45
$GAGSV,2,1,07,02,40,120,33,15,18,196,29,27,28,299,39,29,08,297,27,1*71
$GAGSV,2,2,07,30,82,295,22,34,60,152,23,36,44,055,51,1*42
$GBGSV,3,1,09,14,,,17,16,07,333,24,27,70,219,30,28,59,062,30,1*41
$GBGSV,3,2,09,30,19,233,26,36,22,312,12,37,38,165,31,39,13,330,26,1*76
$GBGSV,3,3,09,42,05,037,24,1*4E
$GBGSV,2,1,06,27,70,219,36,28,59,062,45,36,22,312,29,37,38,165,30,5*79
$GBGSV,2,2,06,39,13,330,25,42,05,037,23,5*7D
$GQGSV,1,1,00,1*65
$GQGSV,1,1,00,8*6C
$GNGGA,211405.000,4911.280742,N,12307.008440,W,1,33,0.54,-0.865,M,-16.829,M,,*64
$GNRMC,211405.000,A,4911.280742,N,12307.008440,W,0.010,013.20,080325,,,A,V*2F
$GNGLL,4911.280742,N,12307.008440,W,211405.000,A,A*5F
$GNVTG,013.20,T,,M,0.010,N,0.018,K,A*2B
$GNGSA,A,3,06,11,12,17,19,20,22,24,25,32,,,0.85,0.54,0.65,1*07
$GNGSA,A,3,65,72,73,79,80,81,82,88,,,,,0.85,0.54,0.65,2*0A
$GNGSA,A,3,02,15,27,29,30,34,36,,,,,,0.85,0.54,0.65,3*05
$GNGSA,A,3,16,27,28,30,36,37,39,42,,,,,0.85,0.54,0.65,4*0D
$GNGSA,A,3,,,,,,,,,,,,,0.85,0.54,0.65,5*0A
$GPGSV,3,1,12,06,59,076,29,11,61,151,25,12,73,295,37,17,05,072,25,1*6C
$GPGSV,3,2,12,19,31,068,41,20,13,146,29,22,04,120,45,24,29,211,28,1*6C
$GPGSV,3,3,12,25,34,301,37,29,,,21,32,04,302,10,44,33,171,30,1*58
$GPGSV,2,1,06,03,03,015,17,06,59,076,35,11,61,151,30,24,29,211,30,8*6A
$GPGSV,2,2,06,25,34,301,26,32,04,302,26,8*6D
$GLGSV,2,1,08,65,06,045,28,72,09,353,38,73,17,321,25,79,45,150,34,1*76
$GLGSV,2,2,08,80,73,307,25,81,58,039,36,82,68,221,15,88,05,041,21,1*76
$GAGSV,2,1,07,02,40,120,39,15,18,196,20,27,28,299,32,29,08,297,28,7*70
$GAGSV,2,2,07,30,82,295,27,34,60,152,29,36,44,055,31,7*4D
$GAGSV,2,1,07,02,40,120,33,15,18,196,29,27,28,299,39,29,08,297,26,1*70
$GAGSV,2,2,07,30,82,295,22,34,60,152,24,36,44,055,51,1*45
$GBGSV,3,1,09,14,,,16,16,07,333,25,27,70,219,29,28,59,062,30,1*49
$GBGSV,3,2,09,30,19,233,27,36,22,312,12,37,38,165,31,39,13,330,27,1*76
$GBGSV,3,3,09,42,05,037,23,1*49
$GBGSV,2,1,06,27,70,219,36,28,59,062,44,36,22,312,28,37,38,165,30,5*79
$GBGSV,2,2,06,39,13,330,25,42,05,037,23,5*7D
$GQGSV,1,1,00,1*65
$GQGSV,1,1,00,8*6C
$GNGGA,211406.000,4911.280729,N,12307.008449,W,1,33,0.55,-0.873,M,-16.830,M,,*6D
